ID,Label,Latitude,Longitude,Elevation,Capacity
3295,Central Park W & W 96 St,40.791270000000004,-73.964839,100.77974495,30
3144,E 81 St & Park Ave,40.77677702,-73.95900970000001,271.04586927,46
387,Centre St & Chambers St,40.71273266,-74.0046073,37.43640587,39
3080,S 4 St & Rodney St,40.709340000000005,-73.95608,25.57409999,21
3510,Adam Clayton Powell Blvd & W 123 St,40.8078316,-73.949373,25.04304621,31
508,W 46 St & 11 Ave,40.76341379,-73.99667444,39.383831,25
3718,E 11 St & Avenue B,40.727464206923926,-73.97950418293476,12.6858,46
3699,W 50 St & 9 Ave,40.76360467795863,-73.98917958140373,49.88030245,30
164,E 47 St & 2 Ave,40.75323098,-73.97032517,37.99227462,47
3744,1 Ave & E 5 St,40.725864,-73.986389,28.16389999,51
446,W 24 St & 7 Ave,40.74487634,-73.99529885,32.71728941,79
79,Franklin St & W Broadway,40.71911552,-74.00666661,9.09902976,33
295,Pike St & E Broadway,40.71406667,-73.99293911,39.204103499999995,24
327,Vesey Pl & River Terrace,40.715337899999994,-74.01658354,33.91,39
3388,President St & Henry St,40.6828003,-73.99990419,82.58,25
3916,Pearl St & Peck Slip,40.708484999999996,-74.002751,14.794,45
474,5 Ave & E 29 St,40.7451677,-73.98683077,41.98493979,56
3255,8 Ave & W 31 St,40.7505853470215,-73.9946848154068,31.88209268,18
369,Washington Pl & 6 Ave,40.73224119,-74.00026394,16.24157118,76
301,E 2 St & Avenue B,40.72217444,-73.98368779,90.65,58
3175,W 70 St & Amsterdam Ave,40.77748046,-73.98288594,77.34877926,31
3822,Bushwick Ave & Forrest St,40.700759999999995,-73.93641,49.4287,20
3709,W 15 St & 6 Ave,40.73804614248277,-73.99642959237099,30.932,51
217,Old Fulton St,40.70277159,-73.99383605,14.1484,39
161,LaGuardia Pl & W 3 St,40.72917025,-73.99810231,28.18039093,35
2017,E 43 St & 2 Ave,40.75022392,-73.97121414,126.51,39
3838,Bushwick Ave & Harman St,40.69356,-73.92524,57.38810527,25
3454,Leonard St & Maujer St,40.71036854235229,-73.94705951213838,40.03547557,24
3052,Lewis Ave & Madison St,40.686312,-73.935775,69.77521786,23
3579,Sterling Pl & Bedford Ave,40.672695000000004,-73.954131,159.59,25
3304,6 Ave & 9 St,40.668127,-73.98377641,89.02169999,27
128,MacDougal St & Prince St,40.72710258,-74.00297088,88.82,56
3116,Huron St & Franklin St,40.732659999999996,-73.95826,11.1743248,35
3134,3 Ave & E 62 St,40.76312584,-73.96526895,59.19831941,51
3244,University Pl & E 8 St,40.73143724085228,-73.99490341544151,30.96018323,42
3077,Stagg St & Union Ave,40.70877084,-73.95095259,30.74715462,33
481,S 3 St & Bedford Ave,40.71260486,-73.96264403,56.06267946,25
3102,Driggs Ave & Lorimer St,40.72179134,-73.95041540000001,46.89,27
3790,Henry St & Middagh St,40.7003,-73.99158100000001,52.58892660000001,37
389,Broadway & Berry St,40.71044554,-73.96525063,40.18948585,27
249,Harrison St & Hudson St,40.71870987,-74.0090009,15.83025309,27
3122,48 Ave & 5 St,40.74436328706688,-73.95587325096129,8.36999999,79
532,S 5 Pl & S 5 St,40.710451,-73.960876,48.93459868,43
439,E 4 St & 2 Ave,40.726280700000004,-73.98978041,35.69310517,43
3992,W 169 St & Fort Washington Ave,40.8428422,-73.9421253,172.9841,47
3096,Union Ave & N 12 St,40.71924,-73.95241999999999,7.2626,39
507,E 25 St & 2 Ave,40.73912601,-73.97973776,28.52129999,45
3712,W 35 St & Dyer Ave,40.754691750226016,-73.9974018931389,45.97149999,40
539,Metropolitan Ave & Bedford Ave,40.71534825,-73.96024116,32.99294168,31
3286,E 89 St & 3 Ave,40.7806284,-73.9521667,74.2895681,39
373,Willoughby Ave & Walworth St,40.69331716,-73.95381995,35.3451,19
3735,W 30 St & 10 Ave,40.752694,-74.002353,13.71467435,38
3501,E 118 St & Madison Ave,40.801486600000004,-73.9442507,31.4354,29
3384,Smith St & 3 St,40.678724200000005,-73.99599099,72.63351248,25
3737,Stanton St & Norfolk St,40.720746999999996,-73.986274,28.1912,35
3918,Avenue D & E 8 St,40.72387,-73.975767,8.91964426,30
2012,E 27 St & 1 Ave,40.739445,-73.97680600000001,17.99549169,35
476,E 31 St & 3 Ave,40.74394314,-73.97966069,29.314706599999997,65
3241,Monroe St & Tompkins Ave,40.686203000000006,-73.944694,94.09,19
3093,N 6 St & Bedford Ave,40.71745169,-73.95850939,61.78,28
486,Broadway & W 29 St,40.7462009,-73.98855723,45.64820002,41
3513,21 St & Hoyt Ave S,40.774645,-73.92370600000001,29.47876126,21
3082,Hope St & Union Ave,40.71167351,-73.95141312,18.98310246,25
426,West St & Chambers St,40.71754834,-74.01322069,7.1058416,30
418,Front St & Gold St,40.70224,-73.982578,41.13597129,37
4011,Westchester Ave & Jackson Ave,40.816124,-73.908116,38.73149999,25
3169,Riverside Dr & W 82 St,40.78720869,-73.98128127,52.48784853,39
3893,Rockaway Ave & Bainbridge St,40.68319988172761,-73.91166642308234,67.78789999,25
398,Atlantic Ave & Furman St,40.69165183,-73.99997859999999,12.57229999,31
386,Centre St & Worth St,40.71494807,-74.00234482,17.3695760003,82
3160,Central Park West & W 76 St,40.77896784,-73.97374737,87.39520186,39
3132,E 59 St & Madison Ave,40.76350532,-73.97109243,45.84333064,35
422,W 59 St & 10 Ave,40.770513,-73.988038,69.87309999,78
502,Henry St & Grand St,40.714211,-73.981095,25.93129299,36
3658,W 18 St & 9 Ave,40.7435337324616,-74.00367558002472,14.06117293,27
3593,31 St & Broadway,40.761584,-73.925921,74.99,35
346,Bank St & Hudson St,40.73652889,-74.00618026,18.9066109,27
432,E 7 St & Avenue A,40.72621788,-73.98379855,68.32,31
3467,W Broadway & Spring St,40.72494672359416,-74.00165855884552,62.67,44
3664,North Moore St & Greenwich St,40.72019521437465,-74.0103006362915,10.92085512,30
3328,W 100 St & Manhattan Ave,40.795,-73.9645,86.79566324,39
3305,E 91 St & 2 Ave,40.781122299341654,-73.94965589046478,32.13189999,39
247,Perry St & Bleecker St,40.73535398,-74.00483091,24.8100547,55
3656,E 2 St & Avenue A,40.72307749068673,-73.98583620786667,25.31459999,46
497,E 17 St & Broadway,40.73704984,-73.99009296,43.01039999,66
3297,6 St & 7 Ave,40.668662700000006,-73.97988067,110.2863,21
505,6 Ave & W 33 St,40.74901271,-73.98848395,42.80875253,52
3290,E 89 St & York Ave,40.7779453,-73.94604100000001,22.08691641,35
317,E 6 St & Avenue B,40.72453734,-73.98185424,56.81,54
3799,6 Ave & W 34 St,40.74964,-73.98805,44.73038993,30
3541,Amsterdam Ave & W 125 St,40.813358,-73.956461,21.4954,39
3668,Leonard St & Nassau Ave,40.7239567849954,-73.94984364509583,55.72,26
3140,1 Ave & E 78 St,40.77140426,-73.9535166,36.31908209,55
358,Christopher St & Greenwich St,40.73291553,-74.00711384,18.83161262,50
379,W 31 St & 7 Ave,40.749156,-73.9916,35.60104016,56
2002,Wythe Ave & Metropolitan Ave,40.716887,-73.96319799999999,64.85,27
3673,Dean St & Franklin Ave,40.67759206937376,-73.95563721656801,86.29700000000001,21
3423,West Drive & Prospect Park West,40.6610633719006,-73.97945255041121,151.77271683,29
3766,Sharon St & Olive St,40.715353,-73.93856,26.91798375,24
3050,Putnam Ave & Throop Ave,40.6851532,-73.94111,50.952,21
174,E 25 St & 1 Ave,40.7381765,-73.97738662,15.2596,35
3129,Queens Plaza North & Crescent St,40.75110165,-73.94073717,23.383000000000003,40
3711,E 13 St & Avenue A,40.72966729392978,-73.98067966103555,54.53,47
461,E 20 St & 2 Ave,40.73587678,-73.98205027,19.32206297,56
3323,W 106 St & Central Park West,40.798185600000004,-73.96059090060001,80.44925474,59
518,E 39 St & 2 Ave,40.74780373,-73.97344190000001,32.57469999,30
3782,Brooklyn Bridge Park - Pier 2,40.698458,-73.997178,46.54456055,31
2010,Grand St & Greene St,40.72170005235607,-74.00238141417502,87.52,65
3156,E 72 St & York Ave,40.76663814,-73.95348296,36.34112468,37
3087,Metropolitan Ave & Meeker Ave,40.71413311,-73.95234386,12.44244898,30
3686,Gansevoort St & Hudson St,40.73944820130404,-74.00507032871245,106.40736862,39
405,Washington St & Gansevoort St,40.739323,-74.008119,9.60058292,51
3287,W 87 St & West End Ave,40.789621999999994,-73.97757,71.6293,47
3296,E 93 St & 2 Ave,40.78245417527987,-73.94891962409021,29.03056691,42
480,W 53 St & 10 Ave,40.76669671,-73.99061728,34.16767681,29
419,Carlton Ave & Park Ave,40.69580705,-73.97355569,38.8398,23
3177,W 84 St & Broadway,40.7867947,-73.977112,69.90030625,63
3599,Franklin Ave & Empire Blvd,40.663140000000006,-73.96056949999999,75.72509999,30
3429,Hanson Pl & Ashland Pl,40.68506807308177,-73.97790759801863,48.35599999,39
3756,White St & Moore St,40.704508000000004,-73.9351,14.29679999,21
3364,Carroll St & 5 Ave,40.6751622,-73.9814832,104.1,27
3494,E 115 St & Lexington Ave,40.797911,-73.9423,22.75176011,25
116,W 17 St & 8 Ave,40.74177603,-74.00149746,100.23823054,30
514,12 Ave & W 40 St,40.76087502,-74.00277668,4.05766458,52
3882,Norman St & Wyckoff Ave,40.695170000000005,-73.90311,74.1584511,15
3619,Newtown Ave & 23 St,40.7713615,-73.9246145,31.6359751,19
3995,5 Ave & E 135 St,40.812191,-73.937838,14.43968371,21
307,Canal St & Rutgers St,40.71427487,-73.98990025,30.29349656,30
312,Allen St & Stanton St,40.722055,-73.989111,36.37990284,33
540,Lexington Ave & E 29 St,40.74311555376486,-73.98215353488922,93.9,54
324,DeKalb Ave & Hudson Ave,40.689888,-73.981013,32.37140553,74
3113,Greenpoint Ave & Manhattan Ave,40.730259999999994,-73.95394,31.59651986,27
350,Clinton St & Grand St,40.71559509,-73.9870295,36.1223462,47
3171,Amsterdam Ave & W 82 St,40.78524672,-73.97667321,129.9,39
3157,East End Ave & E 86 St,40.77518615,-73.94446054,26.55158503,27
3081,Graham Ave & Grand St,40.711863,-73.944024,76.69,29
3725,2 Ave & E 72 St,40.7687620293096,-73.95840793848038,49.78939999,41
3148,E 84 St & 1 Ave,40.77565541,-73.95068615,107.02,31
472,E 32 St & Park Ave,40.745712100000006,-73.98194829,39.76857778,55
470,W 20 St & 8 Ave,40.74345335,-74.00004031,21.59000358,72
120,Lexington Ave & Classon Ave,40.68676793,-73.95928168,91.28,19
238,Bank St & Washington St,40.7361967,-74.00859207,12.83062713,31
530,11 Ave & W 59 St,40.771496710544405,-73.99046033620834,23.0972,24
3601,Sterling St & Bedford Ave,40.6627059,-73.9569115,63.47280231,19
391,Clark St & Henry St,40.69760127,-73.99344559,131.01,38
412,Forsyth St & Canal St,40.715815500000005,-73.99422366,45.0276,29
3499,2 Ave & E 122 St,40.8006721,-73.9349,12.2151,25
438,St Marks Pl & 1 Ave,40.72779126,-73.98564945,88.65,47
420,Clermont Ave & Lafayette Ave,40.68764484,-73.96968902,92.42689527,51
442,W 27 St & 7 Ave,40.746646999999996,-73.993915,31.07178094,51
3842,Bushwick Ave & Dekalb Ave,40.69502,-73.92825,54.37100557,29
525,W 34 St & 11 Ave,40.75594159,-74.0021163,31.0,56
3723,Cadman Plaza E & Johnson St,40.69531727766904,-73.99015724658966,78.06777650000001,30
536,1 Ave & E 30 St,40.74144387,-73.97536082,27.74139999,28
250,Lafayette St & Jersey St,40.72456089,-73.99565293,40.31059999,40
260,Broad St & Bridge St,40.70365182,-74.01167797,5.03659273,33
3016,Kent Ave & N 7 St,40.72036775298455,-73.96165072917937,17.7642,54
3108,Nassau Ave & Russell St,40.725570000000005,-73.94434,16.85658513,51
3834,Irving Ave & Halsey St,40.69467,-73.90663,68.0298,19
460,S 4 St & Wythe Ave,40.71285887,-73.96590294,38.92266176,25
408,Market St & Cherry St,40.71076228,-73.99400398,9.6771,23
3490,E 116 St & 2 Ave,40.796879,-73.93726099999999,15.39519627,31
3907,Central Ave & Melrose St,40.70112,-73.93039,54.28479999,17
305,E 58 St & 3 Ave,40.76095756,-73.96724467,48.20858095,33
3727,Frost St & Meeker Ave,40.71766197083994,-73.94880026578903,12.6162,38
401,Allen St & Rivington St,40.72019576,-73.98997825,75.98,42
416,Cumberland St & Lafayette Ave,40.68753406,-73.97265183,72.53713208,31
3143,5 Ave & E 78 St,40.77632142182271,-73.96427392959596,75.62669999,47
289,Monroe St & Classon Ave,40.684568299999995,-73.95881081,99.55,19
394,E 9 St & Avenue C,40.72521311,-73.97768752,74.82,30
3740,W Broadway & W Houston St,40.726378000000004,-74.000472,22.05515874,34
504,1 Ave & E 16 St,40.73221853,-73.98165557,15.09919999,54
3055,Greene Ave & Nostrand Ave,40.68833370000001,-73.950916,49.02800835,23
3320,Central Park West & W 100 St,40.794066608185524,-73.96286845207214,85.7874,30
3628,Lenox Ave & W 117 St,40.8025566,-73.9490782,21.07302192,31
293,Lafayette St & E 8 St,40.73020660529954,-73.99102628231049,39.53047533,54
3629,Adam Clayton Powell Blvd & W 126 St,40.809495347779475,-73.94776493310928,23.6654336,33
3812,University Pl & E 14 St,40.734814,-73.992085,38.78010351,49
284,Greenwich Ave & 8 Ave,40.7390169121,-74.0026376103,21.22317692,51
3739,Perry St & Greenwich Ave,40.735918,-74.000939,68.87,37
216,Columbia Heights & Cranberry St,40.70037867,-73.99548059,43.79735494,37
467,Dean St & 4 Ave,40.68312489,-73.97895137,36.9789,34
482,W 15 St & 7 Ave,40.73935542,-73.99931783,26.61752384,79
3733,Avenue C & E 18 St,40.730563000000004,-73.973984,5.65559999,46
3391,E 106 St & 1 Ave,40.7892529,-73.93956237,8.01282508,25
3533,St. Nicholas Ave & W 126 St,40.8114323,-73.95187759999999,31.99594523,34
268,Howard St & Centre St,40.71910537,-73.99973337,15.0991,27
3066,Tompkins Ave & Hopkins St,40.69957608,-73.94708417,39.35,19
309,Murray St & West St,40.7149787,-74.013012,7.593766499999999,41
3283,W 89 St & Columbus Ave,40.7882213,-73.97041561,111.59092029,47
2008,Little West St & 1 Pl,40.70569254,-74.01677685,7.23099086,24
3151,E 81 St & York Ave,40.7728384,-73.94989233,103.81,43
3521,Lenox Ave & W 111 St,40.7987859,-73.9523,23.67474316,36
3145,E 84 St & Park Ave,40.77862688,-73.95772073,90.03801378,45
3676,Van Brunt St & Van Dyke St,40.675832943912894,-74.01472628116608,6.56849999,24
434,9 Ave & W 18 St,40.74317449,-74.00366443,14.80028001,60
368,Carmine St & 6 Ave,40.73038599,-74.00214988,17.06199333,47
236,St Marks Pl & 2 Ave,40.7284186,-73.98713956,33.00196671,30
3256,Pier 40 - Hudson River Park,40.7277140777778,-74.01129573583603,7.1129085000000005,23
3552,W 113 St & Broadway,40.805973,-73.964928,123.41986895,39
403,E 2 St & 2 Ave,40.72502876,-73.99069656,38.21087051,31
3092,Berry St & N 8 St,40.7190095,-73.95852515,81.97,27
3572,34 Ave & 38 St,40.756913,-73.921631,40.92999999,33
3867,Somers St & Broadway,40.67945,-73.90474,88.5553,29
3862,Linden St & Knickerbocker Ave,40.697140000000005,-73.91566,32.42209999,18
3453,Devoe St & Lorimer St,40.71335226222875,-73.9491033554077,28.05347332,19
212,W 16 St & The High Line,40.74334935,-74.00681753,11.73609999,60
455,1 Ave & E 44 St,40.75001986,-73.96905301,41.2354,59
3529,Lenox Ave & W 130 St,40.8107922,-73.9430681,23.59239999,25
3249,Verona Pl & Fulton St,40.680356084043396,-73.94767910242079,56.53029999,19
3763,Wyckoff Av & Jefferson St,40.707165,-73.923711,15.19336447,27
3617,28 Ave & 35 St,40.7671,-73.9169858,49.35,27
3357,W 106 St & Amsterdam Ave,40.80083629999999,-73.9664492472,269.7,35
466,W 25 St & 6 Ave,40.74395411,-73.99144871,38.2952691,35
447,8 Ave & W 52 St,40.76370739,-73.9851615,63.38349999,31
3509,Lenox Ave & W 115 St,40.8011939,-73.9500739,21.4382,31
262,Washington Park,40.6917823,-73.97372990000001,60.96550867,24
3289,W 90 St & Amsterdam Ave,40.79017948095081,-73.97288918495178,102.36382519,32
3823,Beaver St & Fayette St,40.700990000000004,-73.93921,31.5203,30
3687,E 33 St & 1 Ave,40.74322681432173,-73.97449783980845,11.44580107,83
3408,Congress St & Clinton St,40.6881529,-73.99520919,40.81729999,27
3362,Madison Ave & E 82 St,40.7781314,-73.96069399,89.52293154,34
487,E 20 St & FDR Drive,40.73314259,-73.97573881,6.80014999,35
355,Bayard St & Baxter St,40.71602118,-73.99974372,21.28520807,43
529,W 42 St & 8 Ave,40.75756989999999,-73.99098507,37.33149965,41
3778,Irving Ave & DeKalb Ave,40.7027,-73.92095,42.0363,27
3591,21 St & 31 Dr,40.7659,-73.930819,9.207615400000002,21
3746,6 Ave & Broome St,40.72430832160217,-74.00473035871983,14.80199999,48
3136,5 Ave & E 63 St,40.766368,-73.971518,53.05026055,47
173,Broadway & W 49 St,40.76068327096592,-73.98452728986742,52.97139999,70
167,E 39 St & 3 Ave,40.7489006,-73.97604882,37.46131596,30
3078,Broadway & Roebling St,40.70924826276157,-73.96063148975372,42.94357211,27
410,Suffolk St & Stanton St,40.72066442,-73.98517977,53.3,45
303,Mercer St & Spring St,40.72362738,-73.99949601,65.16,67
2006,Central Park S & 6 Ave,40.76590936,-73.97634151,58.26670899,49
423,W 54 St & 9 Ave,40.76584941,-73.98690506,64.05946912,27
330,Reade St & Broadway,40.71450451,-74.00562789,33.18918159,39
276,Duane St & Greenwich St,40.71748752,-74.0104554,77.49,25
3615,44 Dr & 21 St,40.748000000000005,-73.94609270000001,17.57,21
265,Stanton St & Chrystie St,40.72229346,-73.99147535,41.66810984,35
462,W 22 St & 10 Ave,40.74691959,-74.00451887,8.50027184,77
282,Kent Ave & S 11 St,40.7076449441757,-73.96841526031494,19.3056,27
3961,Morris Ave & E 153 St,40.820036,-73.92141099999999,23.92604823,19
3562,Classon Ave & St Marks Ave,40.676519799999994,-73.9596082,108.868274,27
3411,Bond St & Bergen St,40.6849668,-73.98620772,19.21839999,27
3048,Putnam Ave & Nostrand Ave,40.684020000000004,-73.94977,88.78,19
496,E 16 St & 5 Ave,40.73726186,-73.99238967,38.56949625,65
3344,Pioneer St & Van Brunt St,40.679043,-74.011169,39.05,19
3680,E 43 St & 5 Ave,40.754120810779256,-73.98025184869765,66.7871522,55
415,Pearl St & Hanover Square,40.7047177,-74.00926027,11.41689006,46
3578,Park Pl & Franklin Ave,40.67418060000001,-73.95649470000001,119.65,21
3058,Lewis Ave & Kosciuszko St,40.69237074,-73.93705428,55.75965718,24
3412,Pacific St & Nevins St,40.6853761,-73.98302136,32.94779999,18
334,W 20 St & 7 Ave,40.74238787,-73.99726235,87.14612821,31
3165,Central Park West & W 72 St,40.77579376683666,-73.97620573639871,89.37850676,51
3738,Delancey St & Eldridge St,40.719383,-73.991479,108.56,31
3883,Harman St & Seneca Ave,40.70577,-73.91292,76.89456767,19
469,Broadway & W 53 St,40.76344058,-73.98268129,70.8736,57
319,Fulton St & Broadway,40.711065999999995,-74.009447,34.53177844,33
223,W 13 St & 7 Ave,40.73781509,-73.99994661,25.81141386,33
3757,Stagg St & Morgan Ave,40.710681,-73.93372,10.99496442,23
380,W 4 St & 7 Ave S,40.73401143,-74.00293877,81.81,42
503,E 20 St & Park Ave,40.73827428,-73.98751968,257.06,31
285,Broadway & E 14 St,40.73454567,-73.99074142,42.75361554,53
3056,Kosciuszko St & Nostrand Ave,40.69072549,-73.95133465,36.64232685,23
3707,Lexington Ave & E 26 St,40.741459000000006,-73.983293,30.4961,55
3117,Franklin St & Dupont St,40.735640000000004,-73.95866,12.53109727,27
479,9 Ave & W 45 St,40.76019252,-73.9912551,34.0,31
3758,George St & Wilson Ave,40.702996999999996,-73.92997,40.60099999,19
343,Clinton Ave & Flushing Ave,40.69794,-73.96986848,10.3389,23
3504,E 123 St & Lexington Ave,40.802926299999996,-73.9379,18.27541729,27
3564,21 St & 36 Ave,40.760185299999996,-73.9362726,12.75058512,19
484,W 44 St & 5 Ave,40.75500254,-73.98014437,60.85445658,46
237,E 11 St & 2 Ave,40.73047309,-73.98672378,31.31383795,39
3367,5 Ave & E 103 St,40.792255299999994,-73.95249933,39.54989999,39
468,Broadway & W 56 St,40.7652654,-73.98192338,76.47245425,65
392,Jay St & Tech Pl,40.695065,-73.987167,42.1137,35
402,Broadway & E 22 St,40.740343200000005,-73.98955109,41.29427046,39
3437,Riverside Dr & W 91 St,40.793134809866636,-73.97700369358063,76.08077304,39
3463,E 16 St & Irving Pl,40.735367055605394,-73.98797392845155,38.075953600000005,37
3760,Willoughby Ave & Wyckoff Ave,40.705614000000004,-73.92153,32.9902,23
3814,E 56 St & Madison Ave,40.761573,-73.972628,51.00986336,23
3350,W 100 St & Broadway,40.797372100000004,-73.97041192,246.19,39
127,Barrow St & Hudson St,40.73172428,-74.00674436,18.63169999,31
494,W 26 St & 8 Ave,40.74734825,-73.99723551,24.0730534,66
3598,Newton Rd & 44 St,40.7595701,-73.91426779999999,80.31,19
489,10 Ave & W 28 St,40.75066386,-74.00176802,14.0,49
3142,1 Ave & E 62 St,40.761227399999996,-73.96094022,43.98894741,41
3613,Center Blvd & 48 Ave,40.745038,-73.957539,9.376264599999999,27
3088,Union Ave & Jackson St,40.7160751,-73.95202900000001,10.53119999,19
3282,5 Ave & E 88 St,40.78307,-73.95939,109.03985214,38
3396,Clinton St & 4 Place,40.6783563,-74.00014502,37.2621,25
3777,Stockholm St & Wilson Ave,40.699304,-73.92304399999999,26.0828,23
411,E 6 St & Avenue D,40.72228087,-73.97668709,10.04279116,31
3105,N 15 St & Wythe Ave,40.724055,-73.955736,7.01989999,24
3546,Pacific St & Classon Ave,40.67919439999999,-73.95879029999999,88.64707834,21
3905,4 Ave & E 12 St,40.732647,-73.99011,43.6597,27
3835,Knickerbocker Ave & Hancock St,40.69385,-73.90974,104.33,22
2003,1 Ave & E 18 St,40.73381219196632,-73.9805442094803,13.82069999,54
310,State St & Smith St,40.68926942,-73.98912867,38.73525966,66
3307,West End Ave & W 94 St,40.7941654,-73.974124,60.22313338,31
366,Clinton Ave & Myrtle Ave,40.693261,-73.968896,59.52462913,33
478,11 Ave & W 41 St,40.76030096,-73.99884222,16.57207113,37
3435,Grand St & Elizabeth St,40.718821999999996,-73.99596,30.39141114,45
3139,E 72 St & Park Ave,40.77118287540658,-73.96409422159195,65.09445001,43
3163,Central Park West & W 68 St,40.7734066,-73.97782542,83.20589584,43
3086,Graham Ave & Conselyea St,40.715143,-73.944507,34.72479999,30
3674,Jay St & York St,40.70140317257725,-73.98672670125961,41.01686519,27
3141,1 Ave & E 68 St,40.76500525,-73.95818491,49.26844909,58
3575,Crescent St & 34 Ave,40.76108,-73.930562,22.35,19
308,St James Pl & Oliver St,40.71307916,-73.99851193,24.34340103,48
3343,W 107 St & Columbus Ave,40.7997568,-73.9621128676,144.68,23
3497,Pleasant Ave & E 116 St,40.794987899999995,-73.9333349,49.49,23
3876,Forest Ave & Summerfield St,40.699220000000004,-73.89795,78.81640593,23
3158,W 63 St & Broadway,40.77163851,-73.98261428,77.04254151,31
298,3 Ave & Schermerhorn St,40.68683208,-73.9796772,38.57788766,35
3164,Columbus Ave & W 72 St,40.7770575,-73.97898475,85.93362181,67
473,Rivington St & Chrystie St,40.72110063,-73.99192540000001,41.47584878,50
3776,Central Ave & Starr Street,40.700003,-73.92834,64.67880726,23
3493,E 118 St & 3 Ave,40.799139000000004,-73.9389152,13.65799999,31
361,Allen St & Hester St,40.71605866,-73.99190759,38.2505706,79
3356,Amsterdam Ave & W 66 St,40.7746671,-73.98470567,61.61431298,21
336,Sullivan St & Washington Sq,40.73047747,-73.99906065,25.25565907,36
3566,Crescent St & 35 Ave,40.7596276,-73.93214549999999,24.43123558,25
513,W 56 St & 10 Ave,40.768254,-73.988639,98.04,29
440,E 45 St & 3 Ave,40.75255434,-73.97282625,89.01,32
3690,Park Pl & Church St,40.71334184275907,-74.00935515761375,28.23960475,36
146,Hudson St & Reade St,40.71625008,-74.0091059,19.898,39
3400,E 110 St & Madison Ave,40.796153499999996,-73.94782145,14.3374,24
454,E 51 St & 1 Ave,40.75455731,-73.96592976,93.48,35
3775,Suydam St & Knickerbocker Ave,40.702013,-73.923769,26.512145399999998,27
3404,7 St & 5 Ave,40.670492200000005,-73.98541675,109.44,27
3300,Prospect Park West & 8 St,40.66514681533792,-73.97637605667114,161.16199999,25
3997,5 Av & W 139 St,40.815484000000005,-73.935856,9.37673041,20
321,Cadman Plaza E & Red Cross Pl,40.69991755,-73.98971773,66.13201179,39
3309,E 97 St & 3 Ave,40.7859201,-73.94860294,33.10783849,30
377,6 Ave & Canal St,40.72243797,-74.00566443,6.94904737,48
3172,W 74 St & Columbus Ave,40.7785669,-73.97754961,190.01894129,27
3537,Carlton Ave & Dean St,40.68097410000001,-73.97100970000001,64.28019999,29
3263,Cooper Square & Astor Pl,40.729514962249496,-73.99075269699097,39.86233285,59
335,Washington Pl & Broadway,40.72903917,-73.99404649,205.9104286,27
372,Franklin Ave & Myrtle Ave,40.694546087246025,-73.95801365375519,93.9,27
3996,Lexington Ave & E 128 St,40.806414000000004,-73.93608499999999,14.53291613,24
3314,W 95 St & Broadway,40.7937704,-73.971888,136.08,32
3101,N 12 St & Bedford Ave,40.72079821,-73.95484712,13.37015417,27
3945,Amsterdam Ave & W 136 St,40.819746,-73.951819,146.40056816,21
3125,45 Rd & 11 St,40.74708586,-73.94977234,11.16905212,23
3919,Wall St & South St,40.704370000000004,-74.00636999999999,4.853,37
3403,4 Ave & 9 St,40.6705135,-73.98876585,82.16625989,31
3054,Greene Ave & Throop Ave,40.6894932,-73.942061,49.0506,19
254,W 11 St & 6 Ave,40.73532427,-73.99800419,23.19628229,47
453,W 22 St & 8 Ave,40.74475148,-73.99915362,20.97119059,66
3443,W 52 St & 6 Ave,40.76132983124814,-73.97982001304626,62.08427528,40
2021,W 45 St & 8 Ave,40.75929124,-73.98859651,38.45304161,65
516,E 47 St & 1 Ave,40.75206862,-73.96784384,30.8383,31
3518,Lenox Ave & W 126 St,40.808442,-73.94520870000001,26.15484247,34
3621,27 Ave & 9 St,40.7739825,-73.93091340000001,51.814049140600005,19
3715,Driggs Ave & N 9 St,40.71816969454208,-73.95520135760306,12.3154,31
3917,Willoughby St & Ashland Pl,40.69178,-73.97877,32.88285789,31
326,E 11 St & 1 Ave,40.72953837,-73.98426726,64.02,41
264,Maiden Ln & Pearl St,40.70706456,-74.00731853,8.17221696,27
151,Cleveland Pl & Spring St,40.72210378668603,-73.99724900722505,106.61,33
3906,West St & Liberty St,40.711444,-74.014847,11.835798329500001,32
3178,Riverside Dr & W 78 St,40.78414472,-73.98362492,55.77358322,39
3604,Rogers Ave & Sterling St,40.6630619,-73.95387459999999,64.7375,16
3425,2 Ave & E 104 St,40.789210499999996,-73.94370784,9.34982071,33
3765,Bushwick Ave & Stagg St,40.709897,-73.94008000000001,43.14710702,21
3062,Myrtle Ave & Marcy Ave,40.69539817,-73.94954908,28.89686763,23
3901,Stanhope St & Fairview Ave,40.70998,-73.91116,107.25,17
3107,Bedford Ave & Nassau Ave,40.72311651,-73.95212324,8.89989168,39
3368,5 Ave & 3 St,40.672815500000006,-73.98352355,42.3558,30
291,Madison St & Montgomery St,40.713126,-73.984844,31.2948,20
450,W 49 St & 8 Ave,40.76227205,-73.98788205,88.1,67
280,E 10 St & 5 Ave,40.73331967,-73.99510132,30.00622136,30
3124,46 Ave & 5 St,40.74731,-73.95451,7.35157072,43
3749,Lexington Ave & E 36 St,40.747573958954796,-73.97880077362059,61.4545,23
3127,9 St & 44 Rd,40.74966,-73.9521,8.92613651,35
3881,12 Ave & W 125 St,40.818298999999996,-73.96040500000001,41.17,39
3828,Eldert St & Bushwick Ave,40.68652,-73.91320999999999,74.32,22
490,8 Ave & W 33 St,40.751551,-73.993934,33.65459999,66
297,E 15 St & 3 Ave,40.734232,-73.986923,176.78,77
3130,21 St & Queens Plaza North,40.75325964,-73.94335788,15.22540887,30
383,Greenwich Ave & Charles St,40.735238,-74.000271,21.72169999,39
3514,Astoria Park S & Shore Blvd,40.7767,-73.927631,17.69532082,23
3372,E 74 St & 1 Ave,40.7689738,-73.95482273,107.69,39
515,W 43 St & 10 Ave,40.76009437,-73.99461843,81.96,79
3259,9 Ave & W 28 St,40.74937024193277,-73.99923384189607,23.4350384003,27
435,W 21 St & 6 Ave,40.74173969,-73.99415556,35.41373342,50
3583,Eastern Pkwy & Washington Ave,40.6716493,-73.9631145,155.72241205,31
4000,Lenox Ave & W 144 St,40.819783,-73.936521,11.12549999,22
4044,8 Ave & W 38 St,40.75461,-73.99176999999999,33.0,49
4002,W 144 St & Adam Clayton Powell Blvd,40.820877,-73.939249,30.19193426,24
3761,Cedar St & Myrtle Ave,40.697842,-73.926241,44.82099999,27
3921,Willis Ave & Bruckner Blvd,40.805701,-73.925177,46.95351365689999,19
342,Columbia St & Rivington St,40.71739973,-73.98016555,12.94147742,29
445,E 10 St & Avenue A,40.72740794,-73.98142006,64.65,80
3502,Lexington Ave & E 111 St,40.79541210000001,-73.9441232,15.64010344,29
3318,2 Ave & E 96 St,40.7839636,-73.94716729999999,12.72339189,39
3409,Bergen St & Smith St,40.686744299999994,-73.99063168,21.608615399999998,48
3393,Richards St & Delavan St,40.67943270000001,-74.00785041,6.18279999,19
3397,Court St & Nelson St,40.6763947,-73.99869893,31.66479999,25
465,Broadway & W 41 St,40.75513557,-73.98658032,55.47139999,39
360,William St & Pine St,40.70717936,-74.00887308,27.69283593,39
3809,W 55 St & 6 Ave,40.763189000000004,-73.978434,61.91078008,53
526,E 33 St & 5 Ave,40.74765947,-73.98490707,46.35891013,40
3382,Carroll St & Smith St,40.680611,-73.99475825,49.23489999,31
385,E 55 St & 2 Ave,40.75797322,-73.96603308,42.3046,29
3110,Meserole Ave & Manhattan Ave,40.72708584,-73.95299117,39.01,28
3870,Melrose St & Broadway,40.697480999999996,-73.935877,64.3971,20
448,W 37 St & 10 Ave,40.75660359,-73.9979009,39.938123499999996,27
499,Broadway & W 60 St,40.76915505,-73.98191841,80.56335,36
3770,Central Ave & Flushing Ave,40.702831,-73.9333,27.4566,21
347,Greenwich St & W Houston St,40.728846000000004,-74.00859100000001,10.67697095,54
3167,Amsterdam Ave & W 73 St,40.779668090073116,-73.98093044757842,73.69921065,55
3963,Melrose Ave & E 150 St,40.816827,-73.917338,36.6805,31
259,South St & Whitehall St,40.70122128,-74.01234218,7.47758047,39
3319,14 St & 5 Ave,40.666287,-73.98895053,98.77,21
3641,Broadway & W 25 St,40.74286877312112,-73.98918628692627,41.37260564,54
3538,W 110 St & Amsterdam Ave,40.802692,-73.96295,98.46817987,45
3774,Knickerbocker Ave & George St,40.704425,-73.92836,24.79459999,23
349,Rivington St & Ridge St,40.71850211,-73.98329859,21.32453893,61
3953,W 147 St & Adam Clayton Powell Blvd,40.82281,-73.937413,21.5524,25
3584,Eastern Pkwy & Franklin Ave,40.670776700000005,-73.9576801,134.64177616,42
3531,Frederick Douglass Blvd & W 129 St,40.8125511,-73.9492286,30.4099056098,27
3534,Frederick Douglass Blvd & W 117 St,40.805159,-73.95469200000001,37.0745,39
4041,Adam Clayton Powell Blvd & W 151 St,40.825289,-73.93623199999999,15.34089999,18
4009,Riverside Dr & W 145 St,40.827304999999996,-73.951989,80.81220102,35
3395,Henry St & W 9 St,40.6763744,-74.00324957,11.1844571,19
3582,Lincoln Pl & Classon Ave,40.672168299999996,-73.9609,140.37089999,28
3648,Flushing Ave & Vanderbilt Ave,40.69795031569544,-73.97077560424805,10.03374702,25
509,9 Ave & W 22 St,40.7454973,-74.00197139,14.45114887,61
3376,E 65 St & 2 Ave,40.76471851944339,-73.96222069859505,60.61173918,39
3042,Fulton St & Utica Ave,40.6794268,-73.92989109999999,55.42025623,19
311,Norfolk St & Broome St,40.7172274,-73.98802084,33.703027292899996,31
3877,Madison St & Forest Ave,40.70555,-73.90245,109.84807884,25
239,Willoughby St & Fleet St,40.69196566,-73.9813018,40.15115609,31
3821,Evergreen Ave & Noll St,40.70106,-73.93318000000001,53.1850945613,25
229,Great Jones St,40.72743423,-73.99379025,40.00290476,23
302,Avenue D & E 3 St,40.72082834,-73.97793172,10.05876712,37
3600,31 Ave & Steinway St,40.761148799999994,-73.9170071,97.15,27
3126,44 Dr & Jackson Ave,40.74718234,-73.9432635,14.76115298,34
483,E 12 St & 3 Ave,40.73223272,-73.98889957,108.54,34
3924,Lincoln Ave & E 138 St,40.810893,-73.927311,14.72749999,25
353,S Portland Ave & Hanson Pl,40.68539567,-73.97431458,68.26579999,27
3246,Montague St & Clinton St,40.694281141397326,-73.99230033159256,79.9961,39
328,Watts St & Greenwich St,40.72405549,-74.00965965,95.81,35
458,11 Ave & W 27 St,40.751396,-74.00522600000001,9.4462,31
3486,Schermerhorn St & Bond St,40.68841742754083,-73.98451656103134,45.66464334,30
501,FDR Drive & E 35 St,40.744219,-73.97121214,30.51149999,83
4017,E 138 St & 5 Av,40.81449,-73.936153,10.77870245,22
258,DeKalb Ave & Vanderbilt Ave,40.68940747,-73.96885458,125.55,23
4034,Hamilton Pl & W 138 St,40.821728,-73.952761,106.20669999,27
3508,St Nicholas Ave & Manhattan Ave,40.809725,-73.953149,27.33323284,31
3398,Smith St & 9 St,40.67469570000001,-73.99785768,12.785,23
3147,E 85 St & 3 Ave,40.77801203,-73.95407149,75.87285432,39
546,E 30 St & Park Ave S,40.74444921,-73.98303529,40.65598417,45
3844,Myrtle Ave & Linden St,40.69943,-73.91337,57.34934747,25
3074,Montrose Ave & Bushwick Ave,40.70767788,-73.94016171,56.23,42
3861,Menahan St & Wyckoff Ave,40.70113,-73.91422,78.29,20
3491,E 118 St & 1 Ave,40.797470000000004,-73.93504,9.1724683,24
257,Lispenard St & Broadway,40.71939226,-74.00247214,65.23,39
320,Leonard St & Church St,40.717571,-74.005549,21.83261173,39
3327,3 Ave & E 100 St,40.787721399999995,-73.94728331,20.18409999,27
3616,Steinway St & 28 Ave,40.7656251,-73.9136695,100.9,25
3815,E 51 St & 2 Ave,40.755293,-73.967641,32.90770441,41
3868,Knickerbocker Ave & Halsey St,40.693000000000005,-73.90824,67.10659999,19
341,Stanton St & Mangin St,40.71782143,-73.97628939,6.34272723,19
3360,Amsterdam Ave & W 79 St,40.7829391,-73.9786517,76.26188256,30
3944,Convent Ave & W 135 St,40.818215,-73.950988,114.21049271,30
252,MacDougal St & Washington Sq,40.73226398,-73.99852205,21.09219999,33
3236,W 42 St & Dyer Ave,40.75898481399634,-73.99379968643187,26.0,33
3671,E 81 St & 2 Ave,40.77477944895728,-73.95427465438844,105.49,37
393,E 5 St & Avenue C,40.72299208,-73.97995466,10.71403543,37
241,DeKalb Ave & S Portland Ave,40.68981035,-73.97493121,53.48814023,23
3128,21 St & 43 Ave,40.75052534,-73.94594845,50.54,27
3603,31 Ave & 30 St,40.7647,-73.9240312,95.48,21
3515,24 Ave & 26 St,40.774591,-73.918544,30.61,7
316,Fulton St & William St,40.70955958,-74.00653609,30.9097,43
3612,30 Ave & 21 St,40.77037429999999,-73.9286078,12.35506098,15
157,Henry St & Atlantic Ave,40.69089272,-73.99612349,96.25552665,23
3597,43 St & Broadway,40.7577284,-73.9166368,48.99,25
3724,7 Ave & Central Park South,40.7667405590595,-73.9790689945221,76.97694887,39
340,Madison St & Clinton St,40.71269042,-73.98776323,20.2899777973,27
3975,Brook Ave & E 157 St,40.820713,-73.911759,30.1784,21
3053,Marcy Ave & Lafayette Ave,40.6900815,-73.94791500000001,44.85202611,23
3771,McKibbin St & Bogart St,40.706237,-73.933871,16.6911645,30
3312,1 Ave & E 94 St,40.78172120000001,-73.94594000000001,10.88450138,39
331,Pike St & Monroe St,40.71173107,-73.99193043,21.55294903,27
3059,Pulaski St & Marcus Garvey Blvd,40.693398200000004,-73.939877,56.23726753,19
3338,2 Ave & E 99 St,40.786258600000004,-73.94552579,11.4667,31
3873,Madison St & Cypress Ave,40.70068,-73.90742,71.28754147,17
3389,Carroll St & Columbia St,40.6830456,-74.00348559,14.598014000000001,28
3520,Adam Clayton Powell Blvd & W 118 St,40.804372,-73.951475,29.464375899999997,27
3285,W 87 St & Amsterdam Ave,40.78839,-73.9747,91.89370903,43
492,W 33 St & 7 Ave,40.75019995,-73.99093085,39.0,68
270,Adelphi St & Myrtle Ave,40.69308257,-73.97178913,60.52658362,23
3071,Boerum St & Broadway,40.70538077,-73.94976519,13.001,19
477,W 41 St & 8 Ave,40.75640548,-73.9900262,46.56956107,71
3243,E 58 St & 1 Ave (NE Corner),40.75892386377695,-73.96226227283478,96.27,29
3967,W 146 St & Broadway,40.826969,-73.949738,111.13555590000001,30
3340,Wolcott St & Dwight St,40.6753274,-74.0100698,7.04679999,21
3558,Bergen St & Vanderbilt Ave,40.6794388,-73.96804379999999,121.76,27
3926,5 Ave & W 131 St,40.810140000000004,-73.93973000000001,20.87149999,20
3379,E 103 St & Lexington Ave,40.790305100000005,-73.94755757,16.15562371,35
3798,W 40 St & 5 Ave,40.752269,-73.982079,74.9843917,55
3795,10 St & 2 Ave,40.671907,-73.993612,77.28922394,19
3339,Berkeley Pl & 6 Ave,40.6765304,-73.97846879,99.3,23
471,Grand St & Havemeyer St,40.71286844,-73.95698119,24.426690100000002,31
119,Park Ave & St Edwards St,40.69608941,-73.97803415,15.69693751,53
3159,W 67 St & Broadway,40.77492513,-73.98266566,109.52,31
3714,Division Ave & Hooper St,40.70684203101325,-73.9544353965357,35.21440916,61
3506,Lexington Ave & E 120 St,40.8013066,-73.93981670000001,20.649054100000004,29
3536,W 116 St & Broadway,40.8082,-73.9641,130.9893,43
3047,Halsey St & Tompkins Ave,40.682368700000005,-73.944118,59.61579999,21
3811,27 Ave & 3 St,40.77485,-73.9342,12.62,19
388,W 26 St & 10 Ave,40.749717753,-74.002950346,11.89592238,35
278,Concord St & Bridge St,40.69766564,-73.98476437,80.36,19
195,Liberty St & Broadway,40.70905623,-74.01043382,30.99499999,30
519,Pershing Square North,40.751872999999996,-73.97770600000001,57.1601,69
400,Pitt St & Stanton St,40.71926081,-73.98178024,18.32875818,15
459,W 20 St & 11 Ave,40.746745000000004,-74.007756,7.0997,30
3563,28 St & 36 Ave,40.757186,-73.93271899999999,37.40565212,29
3170,W 84 St & Columbus Ave,40.78499979,-73.97283406,144.92,35
3848,Suydam St & Broadway,40.695440000000005,-73.93223,59.9425,32
3837,Broadway & Kosciuszko St,40.693290000000005,-73.92851999999999,55.6423,29
3820,Willoughby Ave & Myrtle Ave,40.69757,-73.93098,61.67471712,19
3310,14 St & 7 Ave,40.663779,-73.98396846,176.21,24
3768,Waterbury St & Stagg St,40.710190000000004,-73.93734,29.41502471,23
3830,Halsey St & Evergreen Ave,40.68858,-73.91226999999999,35.2409,22
3526,31 St & 23 Ave,40.7747878,-73.91255509999999,119.24137135,27
3994,2 Ave & E 125 St,40.802554,-73.933509,13.771672199999998,30
3622,E 128 St & Madison Ave,40.807559999999995,-73.93918199999999,21.74276373,23
3335,Union St & 4 Ave,40.6772744,-73.98282002,34.87563638,28
3061,Throop Ave & Myrtle Ave,40.69622937,-73.94371094,43.98456148,21
3951,E 141 St & St Ann's Ave,40.808633,-73.916124,23.8254,19
3569,Franklin Ave & St Marks Ave,40.6758324,-73.95616770000001,98.59919999,29
150,E 2 St & Avenue C,40.720873600000004,-73.98085795,79.17,55
3410,Dean St & Hoyt St,40.686444200000004,-73.98759104,67.28,77
3827,Halsey St & Broadway,40.68565,-73.91564,45.4026,20
3927,Lenox Ave & W 133 St,40.81296,-73.941878,21.82116857,27
4024,Macombs Pl & W 152 St,40.826406,-73.93794799999999,23.99074702,33
3317,10 St & 5 Ave,40.6686273,-73.98700053,67.69109999,24
417,Barclay St & Church St,40.71291224,-74.01020234,16.631788500000003,25
3898,E 63 St & 3 Ave,40.763954,-73.9646,61.816,57
3539,W 116 St & Amsterdam Ave,40.8067581,-73.9607082,139.20750267,43
3115,India St & Manhattan Ave,40.73232194,-73.9550858,51.61,50
3869,Van Buren St & Broadway,40.692,-73.92617,54.1043,24
3602,31 Ave & 34 St,40.763154,-73.920827,99.97,23
3923,Lincoln Ave & E 134 St,40.808484,-73.928803,10.55249826,17
3890,Grove St & Broadway,40.69047,-73.923511,52.98759999,31
3980,Amsterdam Ave & W 152 St,40.829522999999995,-73.94427900000001,131.19999999,20
3137,5 Ave & E 73 St,40.77282817,-73.96685276,71.68492546,31
545,E 23 St & 1 Ave,40.736502,-73.97809472,10.33026553,27
3336,E 97 St & Madison Ave,40.787801,-73.953559,67.60689231,41
3348,Coffey St & Conover St,40.677236,-74.015665,13.72004121,19
3576,Park Pl & Vanderbilt Ave,40.6767,-73.969024,169.64,27
3068,Humboldt St & Varet St,40.7031724,-73.940636,21.57399999,42
3693,N 11 St & Kent Ave,40.72248188638219,-73.95921930670737,14.44668201,27
363,West Thames St,40.70834698,-74.01713445,11.96619999,3
390,Duffield St & Willoughby St,40.69221589,-73.9842844,45.24409999,31
3586,34 Ave & 13 St,40.763875299999995,-73.9364848,13.35025547,19
72,W 52 St & 11 Ave,40.76727216,-73.99392888,25.70662442,55
3831,Broadway & Hancock St,40.68663,-73.9168,45.75139999,35
3383,Cathedral Pkwy & Broadway,40.804213,-73.96699104,108.44999999,25
83,Atlantic Ave & Fort Greene Pl,40.68382604,-73.97632328,45.47354961,62
3495,E 114 St & 1 Ave,40.79456629999999,-73.9362541,9.29489008,14
528,2 Ave & E 31 St,40.74290902,-73.97706058,29.47359999,39
3840,Putnam Ave & Wyckoff Ave,40.69811,-73.90904,62.94890246,24
325,E 19 St & 3 Ave,40.73624527,-73.98473765,26.79851546,35
143,Clinton St & Joralemon St,40.69239502,-73.99337909,102.75,24
3759,Irving Ave & Jefferson St,40.70538,-73.92535,24.62155748,19
3416,7 Ave & Park Pl,40.67761470000001,-73.97324283,89.7038,25
3349,Grand Army Plaza & Plaza St West,40.6729679,-73.97087984,138.7458,30
3789,Fulton St & Irving Pl,40.68186,-73.95943199999999,64.8497,31
3112,Milton St & Franklin St,40.72906,-73.95779,15.927157999999999,33
3469,India St & West St,40.73181401720966,-73.95995020866394,9.85049196,23
3150,E 85 St & York Ave,40.77536905,-73.94803392,113.13,47
3816,Metropolitan Ave & Vandervoort Ave,40.714290000000005,-73.93323000000001,7.77,24
274,Lafayette Ave & Fort Greene Pl,40.68691865,-73.976682,47.7342,31
3421,Hoyt St & Warren St,40.6843549,-73.98901629,12.46295906,23
3785,W 42 St & 6 Ave,40.75492,-73.98455,60.19294892,37
4012,W 148 St & Amsterdam Ave,40.827075,-73.945909,159.82,23
3440,Fulton St & Adams St,40.692418292578466,-73.98949474096298,56.1545,47
4014,Riverside Dr & W 148 St,40.829114000000004,-73.95042600000001,75.71937159999999,22
3119,Vernon Blvd & 50 Ave,40.74232744,-73.95411749,13.84023204,45
4036,Motorgate,40.7639089,-73.9477213,42.20554034,36
82,St James Pl & Pearl St,40.71117416,-74.00016545,15.314589999999999,27
3580,St Johns Pl & Washington Ave,40.6737236,-73.9631611,184.41,30
3387,E 106 St & Madison Ave,40.79343370000001,-73.94945003,15.11655573,25
3955,St Mary's St & Jackson Ave,40.808890999999996,-73.91081,36.41795229,19
367,E 53 St & Lexington Ave,40.75828065,-73.97069431,41.51377914,43
3232,Bond St & Fulton St,40.68962188790333,-73.98304268717766,40.1809,47
315,South St & Gouverneur Ln,40.70355377,-74.00670227,31.1837005,29
3528,Steinway St & 23 Ave,40.771393700000004,-73.9077436,56.53236727,21
3070,McKibbin St & Manhattan Ave,40.70510918,-73.94407279,78.59775445,23
3346,Berkeley Pl & 7 Ave,40.675146838709786,-73.9752320945263,136.92,29
3041,Kingston Ave & Herkimer St,40.67890679,-73.94142771,103.72,24
3492,E 118 St & Park Ave,40.8005385,-73.9419949,26.21006689,27
281,Grand Army Plaza & Central Park S,40.764397100000004,-73.97371465,49.61419999,66
3049,Cambridge Pl & Gates Ave,40.68488,-73.96304,66.48888238,18
3118,McGuinness Blvd & Eagle St,40.73555,-73.95284000000001,9.0656,42
3772,Devoe St & Morgan Ave,40.713811,-73.93515,14.79029999,19
3818,Calyer St & Jewel St,40.72984,-73.94839,10.258,40
3377,Carroll St & Bond St,40.6786115,-73.99037292,9.7446,25
323,Lawrence St & Willoughby St,40.69236178,-73.98631746,42.59549999,39
3554,Vernon Blvd & 41 Rd,40.7552433,-73.94856779999999,12.87264779,27
3085,Roebling St & N 4 St,40.714690000000004,-73.95739,22.51339565,25
3414,Bergen St & Flatbush Ave,40.680944723477296,-73.97567331790923,99.14,33
3879,Broadway & Madison St,40.68822,-73.91966,51.98279999,25
3895,Cypress Ave & Palmetto St,40.70157340873792,-73.90876293182373,74.4489,25
3942,Broadway & W 133 St,40.8190344,-73.95615600000001,67.97101984,21
3920,E 132 St & Madison Ave,40.810224,-73.93719499999999,15.40093417,19
364,Lafayette Ave & Classon Ave,40.68900443,-73.96023854,67.89442768,6
3859,Lorimer St & Calyer St,40.72795,-73.95414,19.75089999,20
3354,3 St & Prospect Park West,40.668132,-73.97363831,149.96732745,31
4010,W 145 St & Amsterdam Ave,40.825244,-73.947257,128.59840164,24
3325,E 95 St & 3 Ave,40.7849032,-73.950503,64.21284126,31
3932,Grand Concourse & E 144 St,40.816576,-73.927987,36.20289466,23
3361,Carroll St & 6 Ave,40.6740886,-73.9787282,80.87609999,23
344,Monroe St & Bedford Ave,40.6851443,-73.95380904,55.40687265,23
531,Forsyth St & Broome St,40.71893904,-73.99266288,40.22491424,60
3551,3 Ave & E 112 St,40.795508,-73.94160600000001,97.55,23
3571,Bedford Ave & Bergen St,40.676368,-73.95291800000001,87.81873915,24
3934,St Nicholas Ave & E 134 St,40.816234,-73.948222,34.95003403,27
4018,Broadway & W 131 St,40.817555,-73.957163,42.9716343,21
3630,Frederick Douglass Blvd & W 115 St,40.8038654,-73.95593079999999,41.0472781,33
396,Lefferts Pl & Franklin Ave,40.680342423,-73.9557689392,93.26472879,2
3076,Scholes St & Manhattan Ave,40.70870368,-73.9448625,36.26654203,36
3057,Kosciuszko St & Tompkins Ave,40.69128258,-73.9452416,40.98657178,18
436,Hancock St & Bedford Ave,40.68216564,-73.95399026,64.43264846,27
3100,Nassau Ave & Newell St,40.724812564400175,-73.94752621650694,13.1186,51
304,Broadway & Battery Pl,40.70463334,-74.01361706,16.53124328,33
2009,Catherine St & Monroe St,40.71117444,-73.99682619,13.14582854,35
3874,Menahan St & Seneca Ave,40.704609999999995,-73.91054,112.57,16
397,Fulton St & Clermont Ave,40.68415748,-73.96922273,75.20419999,75
251,Mott St & Prince St,40.72317958,-73.99480012,120.31881193,27
3293,W 92 St & Broadway,40.7921,-73.9739,94.05269408,24
3523,24 Ave & 29 St,40.7729,-73.91614200000001,32.83,25
3146,E 81 St & 3 Ave,40.77573034,-73.9567526,133.06482344,47
3845,Irving Ave & Harman St,40.70108,-73.9179,31.7222,21
3075,Division Ave & Marcy Ave,40.70708701,-73.95796783,50.39209999,33
3399,7 St & 3 Ave,40.67260298150126,-73.98983001708984,59.63904756,24
3067,Broadway & Whipple St,40.7016657,-73.9437303,17.209247100000002,27
3166,Riverside Dr & W 72 St,40.780577990103346,-73.98562431335448,62.05275947,41
4045,West End Ave & W 60 St,40.77237,-73.99005,24.55819999,39
3472,W 15 St & 10 Ave,40.742753828659026,-74.00747358798982,9.40129999,39
3063,Nostrand Ave & Myrtle Ave,40.69527008,-73.95238108,23.33876049,20
3959,Edgecombe Ave & W 145 St,40.823498,-73.94386,58.65863277,31
3999,Adam Clayton Powell Blvd & W 138 St,40.81695971032464,-73.9422959089279,32.91854999,23
3083,Bushwick Ave & Powers St,40.71247661,-73.94100005,73.45,32
3363,E 102 St & Park Ave,40.7904828,-73.95033068,179.08830964,33
3418,Plaza St West & Flatbush Ave,40.675020700000005,-73.97111473,121.9083,33
3547,Broadway & Moylan Pl,40.8143256,-73.9590255,48.18461871,41
3913,Sands St Gate,40.699569,-73.979827,11.2230130518,19
362,Broadway & W 37 St,40.75172632,-73.98753523,49.07477906,57
3452,Bayard St & Leonard St,40.71915571696044,-73.94885390996933,13.36670092,43
3892,38 Ave & 29 St,40.75473,-73.93366999999999,100.56356624,19
3392,Commerce St & Van Brunt St,40.681211700000006,-74.00860912,5.2859,19
3721,31 St & Newtown Ave,40.7675487799971,-73.92093345522879,63.47795551,35
485,W 37 St & 5 Ave,40.75038009,-73.98338988,73.93844681,40
3477,39 St & 2 Ave,40.65539977447831,-74.0106278657913,10.9495,33
3581,Underhill Ave & Lincoln Pl,40.674012299999994,-73.9671457,140.46225811,27
3933,Gerard Ave & E 146 St,40.817755,-73.92965,20.85082805,19
3311,Columbia St & Kane St,40.68763155,-74.0016256,12.720564300000001,21
3370,E 78 St & 2 Ave,40.7727966,-73.95577801,99.97,25
3755,DeKalb Ave & Franklin Ave,40.69064807082943,-73.95746178925037,53.65929999,19
3394,Columbia St & W 9 St,40.6769993,-74.00647134,31.74,21
3527,5 Ave & E 126 St,40.806979999999996,-73.94174699999999,22.45399999,27
3315,Henry St & Degraw St,40.684751399999996,-73.99917254,32.3873,23
427,Bus Slip & State St,40.701907,-74.013942,8.77274416136,47
3260,Mercer St & Bleecker St,40.72706363348306,-73.99662137031554,34.88217888,45
3402,Court St & State St,40.6902375,-73.99203074,52.92879999,23
3880,Willoughby Ave & Onderdonk Ave,40.7098,-73.91727,67.55980196,27
3069,Lorimer St & Broadway,40.70411791,-73.94818595,11.39371916,29
493,W 45 St & 6 Ave,40.7568001,-73.98291153,59.09784202,34
3819,Green St & McGuinness Blvd,40.733959999999996,-73.95204,55.72,20
3430,Richardson St & N Henry St,40.71907891179564,-73.94223690032959,57.55,25
3829,Central Ave & Decatur St,40.6882,-73.90798000000001,45.9835,24
3573,35 St & 34 Ave,40.7580583,-73.92427509999999,37.23236539,25
3786,Division St & Bowery,40.714193,-73.996732,38.48173395,49
495,W 47 St & 10 Ave,40.76269882,-73.99301222,35.22856537,39
3897,Onderdonk Ave & Dekalb Ave,40.70863,-73.91497,91.25095,17
2000,Front St & Washington St,40.70255088,-73.98940236,14.57559999,57
3302,Columbus Ave & W 103 St,40.7969347,-73.9643412291,112.51928838,22
3833,Madison St & Evergreen Ave,40.69122,-73.91693000000001,78.62,18
3065,Union Ave & Wallabout St,40.70029511,-73.95032283,12.69649454,31
3574,Prospect Pl & Underhill Ave,40.6769694,-73.96579,112.55319999,23
3511,Adam Clayton Powell Blvd & W 115 St,40.802535,-73.9532423,29.46506163,22
261,Johnson St & Gold St,40.69474881,-73.98362464,44.44184933,41
3697,W 64 St & Thelonious Monk Circle,40.77515953434235,-73.98918695747851,38.83569999,43
3804,Front St & Jay St,40.702461,-73.98684200000001,22.30789999,24
3929,Willis Ave & E 141 St,40.81093,-73.92160600000001,23.2945,19
3846,Central Ave & Himrod St,40.69676,-73.92302,50.47040669,25
3306,10 St & 7 Ave,40.666207799999995,-73.98199886,161.52,23
3734,E 58 St &  1 Ave (NW Corner),40.759125,-73.96265799999999,56.06167113,50
3417,Baltic St & 5 Ave,40.6795766,-73.97854971,40.8297,27
339,Avenue D & E 12 St,40.72580614,-73.97422494,7.62768572,30
3585,Union St & Bedford Ave,40.6691783,-73.9554162,137.8315,24
3570,35 Ave & 37 St,40.7557327,-73.92366109999999,36.25999999,31
3559,21 St & 38 Ave,40.7576314,-73.9391224,13.52999999,19
3931,Morris Ave & E 142 St,40.814469,-73.924963,14.4125,23
245,Myrtle Ave & St Edwards St,40.69327018,-73.97703874,43.37985036,23
3839,Putnam Ave & Knickerbocker Ave,40.69545,-73.91164,52.00508395,29
3407,Union St & Nevins St,40.67909799721684,-73.98765474557877,9.4844,23
3553,Frederick Douglass Blvd & W 112 St,40.801694,-73.957145,45.80345278,37
3555,28 St & 41 Ave,40.751047,-73.93796999999999,61.13,27
3885,Onderdonk Ave & Gates Ave,40.70413,-73.90737,86.91708881,19
3345,Madison Ave & E 99 St,40.78948541553215,-73.9524292945862,48.71369636,35
228,E 48 St & 3 Ave,40.7546011026,-73.971878855,39.84182204,55
3779,Hart St & Wyckoff Ave,40.704876,-73.919911,49.41336717,24
3930,E 142 St & 3 Ave,40.812734999999996,-73.923697,29.09529501,19
144,Nassau St & Navy St,40.69839895,-73.98068914,10.22462013,58
3503,Madison Ave & E 120 St,40.80295,-73.942954,28.47957644,30
3072,Leonard St & Boerum St,40.70583339,-73.94644578,17.7536274787,24
3928,Adam Clayton Powell Blvd & W 132 St,40.813539,-73.94521,28.12793729,18
3173,Riverside Blvd & W 67 St,40.777507027547976,-73.98888587951659,38.95669999,38
3288,E 88 St & 1 Ave,40.778301,-73.9488134,506.87,39
534,Water - Whitehall Plaza,40.70255065,-74.0127234,5.78651439,31
3610,Vernon Blvd & 30 Rd,40.770845,-73.93417099999999,11.3,27
3851,Metropolitan Ave & Stewart Ave,40.714009999999995,-73.92793,10.76937424,20
3152,3 Ave & E 71 St,40.76873687,-73.96119945,77.15169079,42
3298,Warren St & Court St,40.686371,-73.99383324,81.35,23
332,Cherry St,40.71219906,-73.97948148,18.11690989,36
3542,Amsterdam Ave & W 119 St,40.8086249,-73.9596214,115.52569999,29
3689,W 104 St & Amsterdam Ave,40.79904139288298,-73.96649479866028,103.20952505,47
3637,Fulton St & Waverly Ave,40.68323865460341,-73.96599590778352,76.86089999,31
3461,Murray St & Greenwich St,40.71485150526252,-74.01122331619263,10.4308,33
3358,Garfield Pl & 8 Ave,40.671197799999995,-73.97484126,117.96219999,25
3374,Central Park North & Adam Clayton Powell Blvd,40.799484,-73.955613,33.581044776300004,36
3496,1 Ave & E 110 St,40.7923272,-73.9383,9.4038,25
4058,Madison Av & E 51 St,40.75863,-73.97513000000001,68.3239,41
3233,E 48 St & 5 Ave,40.75724567911726,-73.97805914282799,67.96589999,39
3226,W 82 St & Central Park West,40.78275,-73.97137,97.89249738,45
3783,Cliff St & Fulton St,40.70838,-74.00495,16.86659999,65
3608,5 St & 51 Ave,40.7423737,-73.9566,7.82989999,21
3405,5 St & 6 Ave,40.670483600000004,-73.98208968,105.17,23
3313,6 Ave & 12 St,40.666318100000005,-73.9854617,99.8206,29
3903,Jefferson Ave & Evergreen Ave,40.689890000000005,-73.91458,44.50729999,17
3745,36 Ave & 31 St,40.75651272984955,-73.92957486212252,47.91,27
3095,Graham Ave & Herbert St,40.71929301,-73.94500379,34.17480557,26
3351,E 102 St & 1 Ave,40.7869946,-73.94164802,8.29532321,25
3301,Columbus Ave & W 95 St,40.7919557,-73.968087,116.06423446,39
3535,Mt Morris Park W & W 120 St,40.804038,-73.945925,26.93489999,27
351,Front St & Maiden Ln,40.70530954,-74.00612572,4.3502,39
244,Willoughby Ave & Hall St,40.69196035,-73.96536851,61.63713112,31
3043,Lewis Ave & Decatur St,40.6814598,-73.934903,53.487961399999996,19
3914,West End Ave & W 78 St,40.783786,-73.981687,75.20678948,39
3887,Flushing Ave & Woodward Ave,40.71246,-73.91873000000001,25.6526,21
3866,Wilson Ave & Moffat St,40.68906,-73.90505999999999,54.6474,32
3135,E 75 St & 3 Ave,40.77112927,-73.95772297,91.54,41
376,John St & William St,40.70862144,-74.00722156,25.2335,42
3836,Bushwick Ave & Linden St,40.69146,-73.92146,55.10989999,29
3507,Park Ave & E 124 St,40.8045555,-73.93968609999999,22.948,36
3891,Irving Ave & Palmetto St,40.698,-73.9127,77.93,20
4007,Riverside Dr & W 138 St,40.823168,-73.955857,59.2700534343,30
3235,E 41 St & Madison Ave,40.752165280621966,-73.97992193698882,74.49659493,26
3998,W 135 St & Lenox Terrace Pl,40.813619,-73.939336,17.16753677,29
3863,Central Ave & Woodbine St,40.69296,-73.91605,30.6431,18
3853,Harrison Pl & Porter Ave,40.70686,-73.92851,17.86692121,20
456,E 53 St & Madison Ave,40.75971079999999,-73.97402311,59.51925105,34
3161,W 76 St & Columbus Ave,40.7801839724239,-73.97728532552719,146.887201,59
3500,E 115 St & Madison Ave,40.7989445,-73.944846,25.29511046,31
3832,Central Ave & Weirfield St,40.69055,-73.91181,34.17419999,21
3611,Vernon Blvd & 47 Rd,40.7449067,-73.9534573,15.05,31
3530,Crescent St & Ditmars Blvd,40.7787185,-73.9145645,43.13420183,19
3498,Pleasant Ave & E 120 St,40.7974772,-73.9311847,10.86777865,21
3094,Graham Ave & Withers St,40.7169811,-73.94485918,23.04887559,17
3987,E 149 St & Jackson Ave,40.813134999999996,-73.909235,33.73243478,23
3858,Kent St & McGuinness Blvd,40.73124,-73.95161,8.72999999,20
4035,Broadway & W 153 St,40.831327,-73.946665,137.31972617,20
437,Macon St & Nostrand Ave,40.6809833854,-73.9500479759,98.18,24
3109,Banker St & Meserole Ave,40.72606,-73.95621,8.6624964,31
443,Bedford Ave & S 9 St,40.70853074,-73.96408963,42.79102137,23
3871,Bushwick Ave & Furman Ave,40.682809999999996,-73.90623000000001,94.1138,30
3773,Knickerbocker Ave & Thames St,40.70539,-73.92976,60.49,20
3978,Cauldwell Ave & E 161 St,40.82188,-73.907521,68.3098,18
399,Lafayette Ave & St James Pl,40.68851534,-73.9647628,73.44847445,39
3565,36 Ave & 10 St,40.7614376,-73.9411265,16.93027199,19
3618,27 St & Hunter St,40.7485,-73.941275,37.23637004,33
3179,Park Ave & Marcus Garvey Blvd,40.698617,-73.941342,42.4945,23
3375,3 Ave & E 72 St,40.7699426,-73.96060712,69.92780593,35
3060,Willoughby Ave & Tompkins Ave,40.69425403,-73.94626915,36.2347,19
3545,Broadway & W 122 St,40.8120562,-73.9612547,94.32739999,33
4020,Bradhurst Ave & W 148 St,40.825125,-73.941616,22.46959999,22
3843,Myrtle Ave & Grove St,40.69905,-73.91516,48.52659999,23
3948,E 138 St & Cypress Ave,40.805559,-73.91471800000001,55.13413003,23
3299,E 98 St & Park Ave,40.788129999999995,-73.95206,55.49311723,25
3369,E 82 St & East End Ave,40.7724607,-73.9468208,38.8453,29
248,Laight St & Hudson St,40.72185379,-74.00771779,14.672908300000001,99
3762,3 Ave & Carroll St,40.677027,-73.9865,40.62,27
3708,W 13 St & 5 Ave,40.735445,-73.99431,120.11,29
3826,Moffat St & Bushwick,40.68458,-73.90925,71.0041,18
3605,31 Ave & Crescent St,40.765834600000005,-73.9265474,60.04,21
3716,40 Ave & Crescent St,40.7535992020056,-73.9379560947418,37.13,23
522,E 51 St & Lexington Ave,40.75714758,-73.97207836,46.66353536,51
3824,Van Sinderen Ave & Truxton St,40.6786,-73.90369,82.81399999,23
3549,Grand Ave & Bergen St,40.678045000000004,-73.962408,104.82845164,25
3221,47 Ave & 31 St,40.743,-73.93561,15.04989999,27
3568,34 St & 35 Ave,40.756933200000006,-73.92622309999999,42.05999999,21
3620,11 St & 43 Ave,40.7519071,-73.94791190000001,13.58999999,23
354,Emerson Pl & Myrtle Ave,40.69363137,-73.96223558,41.40456251,47
3359,E 68 St & Madison Ave,40.7691572,-73.96703464,148.62,41
3242,Schermerhorn St & Court St,40.69102925677968,-73.99183362722397,56.62519999,39
3649,W 129 St & Convent Ave,40.81439443791581,-73.95324736833571,56.47027991,30
3981,Harlem River Dr & W 155 St,40.830476000000004,-73.939929,104.10036061,24
3294,E 91 St & Park Ave,40.7835016,-73.955327,102.47662922,38
3044,Albany Ave & Fulton St,40.6800105,-73.938475,79.83,27
3355,E 66 St & Madison Ave,40.768008893059466,-73.96845281124116,58.20242434,25
3505,Lexington Ave & E 127 St,40.805726,-73.936322,15.8396,33
3154,E 77 St & 3 Ave,40.77314236,-73.95856158,50.76613297,31
3614,Crescent St & 30 Ave,40.768692,-73.9249574,63.02,23
4025,Edgecombe Ave & W 150 St,40.826881,-73.941427,92.14942382,20
4016,Adam Clayton Powell Blvd & W 130 St,40.812346000000005,-73.946168,27.2356,22
3381,3 St & Hoyt St,40.6777287,-73.99364123,30.52209685,21
3378,E 76 St & Park Ave,40.773763,-73.96222088,65.43701555,28
3415,Prospect Pl & 6 Ave,40.6793307,-73.97519523,64.76089999,25
3390,E 109 St & 3 Ave,40.79329668,-73.9432083,12.06419999,24
3424,E 106 St & Lexington Ave,40.791976,-73.945993,68.07,27
3366,West End Ave & W 107 St,40.8021174,-73.9681805305,106.45487646,31
4004,Edgecombe Ave & W 141 St,40.820681,-73.945144,26.93856894,21
3937,E 135 St & St Ann's Ave,40.805089,-73.91888900000001,18.09447488,23
3856,Kingsland Ave & Nassau Ave,40.725770000000004,-73.94173,47.57,25
3532,Ditmars Blvd & 19 St,40.78145,-73.9183302,31.62396608,27
3896,Madison St & Seneca Ave,40.70183,-73.90625,78.44967828,22
3386,1 Pl & Clinton St,40.6809591,-73.99905709,55.79939267,27
3131,E 68 St & 3 Ave,40.76712840349542,-73.96224617958069,79.7932,31
3284,E 88 St & Park Ave,40.781410700190015,-73.95595908164978,92.67448521,38
3606,49 Ave & 21 St,40.74252,-73.948852,39.05,21
3728,Pierrepont St & Monroe Pl,40.69535693320225,-73.99344027042389,86.40935734,24
3456,Jackson St & Leonard St,40.716380319735606,-73.94821286201476,43.95,22
3331,Riverside Dr & W 104 St,40.8013434,-73.97114574390001,92.48815648,39
3661,Montgomery St & Franklin Ave,40.666439306870814,-73.96055638790129,102.90451256,19
3654,31 St & Northern Blvd,40.75186951421875,-73.93349289894103,20.21425844,35
3875,Stephen St & Seneca Ave,40.6988,-73.9007,105.09,15
3607,31 Ave & 14 St,40.7682,-73.9322662,51.39,19
3922,Alexander Ave & E 134 St,40.807466,-73.92710699999999,12.8202,19
3231,E 67 St & Park Ave,40.76780080148132,-73.96592080593109,64.82048393,39
3422,Columbia St & Degraw St,40.6859296,-74.00242364,14.48590308,21
3900,Morgan Ave & Lombardy St,40.72226,-73.93889,37.08999999,30
3936,W 133 St & 12 Ave,40.820003,-73.959089,40.58,19
3516,31 St & Astoria Blvd,40.76991760000001,-73.91840570000001,66.75,31
359,E 47 St & Park Ave,40.75510267,-73.97498696,61.81449886,78
3946,St Nicholas Ave & W 137 St,40.818477,-73.947568,37.1346,21
2022,E 60 St & York Ave,40.759107,-73.959223,25.20393582,33
3767,Powers St & Olive St,40.713229999999996,-73.93894,33.62129999,19
3540,Morningside Ave & W 123 St,40.81,-73.9551508,29.00188955,35
3935,Amsterdam Ave & W 131 St,40.816355,-73.954295,61.28889999,19
3764,Bushwick Ave & McKibbin St,40.705517,-73.93936,57.71,21
3589,Broadway & 12 St,40.7668,-73.93477740000002,9.529230199999999,19
3986,E 149 St & Morris Ave,40.81734,-73.922962,18.39149999,35
3595,35 St & Broadway,40.760339,-73.9222427,50.27416585,18
3522,37 St & 24 Ave,40.7701477,-73.9120938,108.03,19
3106,Driggs Ave & N Henry St,40.72325,-73.94308000000001,24.81677252,22
3064,Myrtle Ave & Lewis Ave,40.69681963,-73.93756926,97.31269062,23
3420,Douglass St & 3 Ave,40.6802133,-73.98432695,20.87859999,21
517,Pershing Square South,40.751581,-73.97791,79.73221533,69
3988,E 128 St & 3 Ave,40.805631,-73.934077,10.97433752,19
313,Washington Ave & Park Ave,40.69610226,-73.96751037,30.4646,55
3303,Butler St & Court St,40.6849894,-73.99440329,40.04159999,25
3808,24 St & 41 Ave,40.752474,-73.939991,27.36618686,19
3623,W 120 St & Claremont Ave,40.8109494,-73.9634,121.02766325,39
356,Bialystoker Pl & Delancey St,40.71622644,-73.98261206,19.62883199,23
3332,Degraw St & Hoyt St,40.68199044270703,-73.99079024791719,20.44449999,19
4037,Roosevelt Island Tramway,40.757284000000006,-73.9536,16.1181427,39
3902,Fairview Ave & Linden St,40.70694,-73.90632,103.86538137,19
3825,Broadway & Furman Ave,40.68139,-73.90756,86.06299999,29
3592,Crescent St & Broadway,40.7633589,-73.92864709999999,44.78,19
3373,3 St & 3 Ave,40.675070500000004,-73.98775226,16.0372,27
3854,Morgan Ave & Maspeth Ave,40.716657,-73.93637,17.28468783,24
3726,Center Blvd & 51 Ave,40.74336608027021,-73.95960688591003,8.91011468193,23
3121,Jackson Ave & 46 Rd,40.74524768,-73.94733276,45.72,27
3308,Kane St & Clinton St,40.686175799999994,-73.99645295,70.22,27
3860,Wilson Ave & Troutman St,40.70166,-73.92754000000001,55.67999999,26
3646,35 Ave & 10 St,40.763154819103725,-73.93985509872438,18.41,26
3857,Engert Ave & McGuinness Blvd,40.721579999999996,-73.94546,19.38050349,19
3647,48 Ave & 30 Pl,40.74128309355993,-73.93725872039794,12.82989999,23
3939,Willow Ave & E 133 St,40.800933,-73.913863,8.5816,21
3925,E 138 St & Canal St W,40.812304,-73.929153,33.66,21
3609,Vernon Blvd & 31 Ave,40.7692475,-73.93545040000001,6.65889022,23
3973,St Nicholas Ave & W 150 St,40.827212,-73.942722,103.30992195,26
4001,Lenox Ave & W 146 St,40.821111,-73.935971,9.5859,24
3965,E 149 St & Eagle Ave,40.814046000000005,-73.91186,28.49657108,19
3588,Vernon Blvd & 10 St,40.7671863,-73.9373554,7.7005,21
3324,3 Ave & 14 St,40.6685455,-73.99333264,63.32,25
3911,Wyckoff St & Nevins St,40.683426000000004,-73.984275,19.34889999,22
3841,Menahan St & Central Ave,40.69543,-73.9196,36.08559744,25
3322,12 St & 4 Ave,40.668603000000004,-73.99043940000001,46.2336,25
3969,St Ann's Ave & Westchester Ave,40.815887,-73.911918,22.56483742,19
3884,Centre St & Seneca Ave,40.699690000000004,-73.9022,106.51,23
3517,31 St & Hoyt Ave N,40.771152799999996,-73.9170074,37.46009999,35
267,Broadway & W 36 St,40.75097711,-73.98765428,48.60276939999999,70
3544,Underhill Ave & Pacific St,40.6804836,-73.9646795,86.4502,27
3780,Wyckoff Av & Stanhope St,40.703545,-73.917775,48.69536258,22
3365,3 St & 7 Ave,40.67038370000001,-73.97839676,90.6679,27
3352,Sigourney St & Columbia St,40.67267243410948,-74.00879524648191,7.08738382,21
3292,5 Ave & E 93 St,40.785785100000005,-73.957481,99.80902490000001,43
3321,Clinton St & Union St,40.683116399999996,-73.99785267,78.07,25
3419,Douglass St & 4 Ave,40.67927879999999,-73.98154004,73.7581729,27
3781,Greene Av & Myrtle Av,40.698568,-73.918877,27.70149999,30
500,Broadway & W 51 St,40.76228826,-73.98336183,60.79844993,52
3989,Willis Ave & E 137 St,40.808384000000004,-73.923604,38.75470678,22
3793,Stuyvesant Walk & 1 Av Loop,40.732339777151054,-73.97898383438587,13.9274577026,30
3326,Clinton St & Centre St,40.67434,-74.00194698,9.0507,21
3966,Wales Ave & E 147 St,40.811314,-73.907729,35.79406470000001,19
3123,31 St & Thomson Ave,40.74469738,-73.93540375,20.97482454,47
3976,E 156 & Brook Ave,40.819823,-73.91241099999999,26.79499999,19
3457,E 58 St & Madison Ave,40.763025942805186,-73.97209525108337,45.08319287,46
3968,Prospect Ave & E 151 St,40.814232000000004,-73.903927,33.76709999,21
3910,Greene Ave & Grandview Ave,40.709697,-73.90785600000001,115.33224495,17
275,Washington Ave & Greene Ave,40.68650065,-73.96563307,92.61470349,19
3909,Madison St & Woodward Ave,40.70408,-73.90408000000001,89.63636545,20
242,Carlton Ave & Flushing Ave,40.697787,-73.973736,13.619457500000001,46
3850,Jefferson St & Cypress Ave,40.709070000000004,-73.92156999999999,26.21289999,25
3984,W 140 St & Riverside Dr,40.824013,-73.95474300000001,57.806999999999995,23
3864,Central Ave & Covert St,40.68929,-73.90951,45.2942,30
464,E 56 St & 3 Ave,40.75934501,-73.96759673,39.44677528,53
3704,47 Ave & Skillman Ave,40.7437524099784,-73.94176483154297,14.36999999,19
3587,Carroll St & Washington Ave,40.6686744,-73.9618148,127.24008604,27
3731,W 47 St & 6 Ave,40.758396999999995,-73.98255,52.13671909,46
4038,Southpoint Park,40.75370225419114,-73.95865201950072,6.99349557,29
3590,Carroll St & Franklin Ave,40.6679411,-73.9588,149.23,19
3524,19 St & 24 Ave,40.777455200000006,-73.9225403,50.06306413,23
3769,White St & Johnson Ave,40.707174,-73.93581,16.5901,23
3855,Frost St & Debevoise Ave,40.71882,-73.93948,34.18203558,22
3329,Degraw St & Smith St,40.6829151,-73.99318208,66.12,27
3847,Cedar St & Evergreen Ave,40.696709999999996,-73.92806999999999,47.17729999,25
3787,Dock 72 Way & Market St,40.69985,-73.97140999999999,7.0092543713,22
3577,34 Ave & 21 St,40.762813799999996,-73.9342862,13.44322663,23
3347,Van Brunt St & Wolcott St,40.6773429,-74.01275056,9.14299999,21
3849,Suydam St & St. Nicholas Ave,40.70636,-73.91945,47.59899173,17
3525,23 Ave & 27 St,40.776165,-73.9153175,62.83,21
3330,Henry St & Bay St,40.672505799999996,-74.00494695,5.22202561,19
3949,Brook Ave & E 138 St,40.807408,-73.91924,86.26,23
3817,Withers St & Kingsland Ave,40.717729999999996,-73.94051,62.53,18
3878,Cypress Ave & George St,40.69812,-73.90271,64.91006828,19
4005,St. Nicholas Terrace & Convent Ave,40.821294,-73.947868,121.35600187,24
3803,Bedford Ave & Montgomery St,40.665816,-73.95693399999999,91.1186,27
3478,2 Ave & 36 St,40.65708866668485,-74.00870203971863,6.71899999,43
3254,Soissons Landing,40.69231660719192,-74.01486575603484,26.3818841,30
3886,Menahan St & Onderdonk Ave,40.705529999999996,-73.9096,129.71,20
3182,Yankee Ferry Terminal,40.686931,-74.016966,8.34759999,30
3596,Sullivan Pl & Bedford Ave,40.6642406,-73.9574686,72.5273096,19
3046,Marcus Garvey Blvd & Macon St,40.682601,-73.938037,74.26,19
3865,Knickerbocker Ave & Cooper St,40.69081,-73.90448,58.80819999,24
4021,E 138 St & Grand Concourse,40.813224,-73.930605,17.8432,21
3543,Morningside Dr & Amsterdam Ave,40.81028506306003,-73.95736455917357,87.29213184,35
3899,Manhattan Av & Leonard St,40.72084,-73.94844,14.85972586,18
3479,Picnic Point,40.68512559515415,-74.02535319328308,6.81717022,30
3872,Hancock St & Wyckoff Ave,40.6972,-73.90674,103.34,19
3977,Prospect Ave & Longwood Ave,40.81899,-73.90202,59.48840443,29
3561,37 Ave & 35 St,40.7531106,-73.9279917,29.18399851,26
4064,Southern Blvd & E 142 St,40.807347437082,-73.90809774398805,26.71080139,23
4019,St. Ann's Av & Bruckner Blvd,40.803399,-73.919763,10.58352296,17
3970,Melrose Ave & E 154 St,40.819609,-73.916071,93.88,19
3940,E 134 St & Walnut Ave,40.800425,-73.911034,7.11289999,16
3342,Pioneer St & Richards St,40.677774799999995,-74.0094613,6.12189999,23
3941,Walnut Ave & E 136 St,40.801657,-73.909513,6.100029900000001,17
3337,Dwight St & Van Dyke St,40.67363551341504,-74.01195555925368,6.6333,23
3888,Woodward Ave & Harman St,40.70793,-73.91091999999999,137.09,19
3964,Brook Ave & E 148 St,40.814383,-73.915368,14.55789999,20
3982,Bergen Ave & E 152 St,40.817166,-73.914737,18.03673943,21
3958,Willis Ave & E 143 St,40.812298999999996,-73.92036999999999,20.7262,23
3952,E 141 St & Jackson Ave,40.806896,-73.911837,59.16,19
3950,Brook Ave & E 141 St,40.809619,-73.917875,14.6695,19
4006,E 147 St & Bergen Ave,40.814673,-73.91839,23.84677798,25
3957,E 144 St & Brook Ave,40.811675,-73.917037,13.98544912,19
4032,E 155 St & Courtlandt Ave,40.820570000000004,-73.917579,57.29,19
3567,11 St & 35 Ave,40.76274420000001,-73.9391141,14.61,19
3938,E 133 St & Cypress Pl,40.802620000000005,-73.9174,22.48053176,19
3852,Stewart Ave & Johnson Ave,40.708690000000004,-73.92586999999999,10.60438911,17
4029,Courtlandt Ave & E 149 St,40.816402000000004,-73.919549,46.7494,23
3333,Columbia St & Lorraine St,40.6747055,-74.00755720000001,7.25009386,21
3956,St. Ann's Ave & E 144 St,40.811112,-73.914932,20.36699999,23
533,Broadway & W 38 St,40.75299641,-73.98721619,51.3619,46
3947,E 138 St & Willow Ave,40.804168,-73.91154499999999,26.80839999,18
2005,Railroad Ave & Kay Ave,40.70531194,-73.97100056,6.05510354,12
4028,Frederick Douglass Blvd & Harlem River Dr,40.830702,-73.936371,8.79347381,19
4013,Convent Ave & W 151 St,40.828309999999995,-73.942924,110.94099999,24
4073,W 51 St & Rockefeller Plaza,40.75969995906254,-73.9780819416046,68.8607,35
4048,St. Nicholas Ave & W 157 St,40.832314000000004,-73.94102,215.39598648,20
4072,W 48 St & Rockefeller Plaza,40.757936462436746,-73.97960275411606,61.65590541,40
3960,Hamilton Pl & W 140 St,40.822756,-73.951346,132.28688181,21
4015,W 155 St & Frederick Douglass Blvd,40.829229999999995,-73.936996,14.24806027,31
4054,W 163 St & Riverside Dr,40.839278,-73.94544599999999,130.8141,19
4051,W 160 St & St. Nicholas Ave,40.834468,-73.939865,228.90785316,26
4052,Amsterdam Ave & W 162 St,40.83618,-73.939789,162.79139439,27
3983,Westchester Ave & E 156 St,40.817802,-73.905203,44.7442,23
4055,W 165 St & Fort Washington Ave,40.84004,-73.942939,145.70709065,27
4056,Broadway & W 165 St,40.839137,-73.941409,166.3763,24
3985,E 160 St & Tinton Ave,40.820302000000005,-73.903944,52.7035,22
4061,Fort Washington Ave & W 173 St,40.84522,-73.940493,190.34570173,24
4043,W 78 St & Amsterdam Ave,40.782535857724106,-73.97908508777618,77.33615371,24
4060,Amsterdam Ave & W 172 St,40.842172999999995,-73.93511099999999,186.6358,23
4031,Cauldwell Ave & E 158 St,40.81989,-73.908351,69.98951234,19
4059,W 171 St & St. Nicholas Ave,40.842940999999996,-73.938631,195.321,31
4071,Broadway & W 160 St,40.835775,-73.9434,129.58767356,22
224,Spruce St & Nassau St,40.71146364,-74.00552427,31.34708584,30
4047,Amsterdam Ave & W 156 St,40.832081,-73.942386,144.59166589,27
4075,Central Park West & W 85 St,40.78476,-73.969862,108.95661429,38
4050,W 159 St & Edgecombe Ave,40.833303,-73.939326,139.20209999,21
4023,Adam Clayton Powell Blvd & W 141 St,40.819241,-73.941057,33.65498318,24
4074,Edgecombe Ave & W 167 St,40.838190999999995,-73.93608499999999,153.52334738,23
4057,Amsterdam Ave & W 167 St,40.839443,-73.937044,147.62219999,23
4053,W 163 St & Edgecombe Ave,40.835798,-73.937496,158.94359999,19
4062,Amsterdam Ave & W 175 St,40.844044,-73.933651,169.64095861,23
4069,Cabrini Blvd & W 177 St,40.848282,-73.941343,180.38,24
4063,Wadsworth Ave & W 175 St,40.846052,-73.937648,204.40489999,24
4065,Wadsworth Ave & W 179 St,40.848467,-73.936064,183.69999999,35
4066,Audobon Ave & W 179 St,40.847305,-73.933291,174.06859999,23
4067,Amsterdam Ave & W 180 St,40.847396,-73.931205,159.0,23
4040,Madison Ave & E 26 St,40.742684734875695,-73.98671329021455,34.70909999,51
4027,St. Nicholas Ave & W 155 St,40.830663,-73.941323,133.98215046,23
4104,Old Broadway & W 133 St,40.818212,-73.955277,68.74804769,20
4068,Fort Washington Ave & W 183 St,40.852252,-73.937854,242.97999999,30
421,Clermont Ave & Park Ave,40.69573398,-73.97129668,40.36647872,19
4124,Central Park W & W 91 St,40.78866499127884,-73.96680057048799,116.76780464,48
4122,Central Park W & W 97 St,40.79249519495111,-73.9641706646307,96.30009999,53
4123,Central Park W & W 103 St,40.79603684159984,-73.96158903853575,84.9746245,25
4070,W 180 St & Ft Washington Ave,40.849971999999994,-73.938423,202.12262082,24
4109,Amsterdam Ave & W 183 St,40.84925,-73.93021999999999,174.1986773,21
4079,Grant Ave & E 164 St,40.828846999999996,-73.91769000000001,70.97,21
4082,Gerard Ave & McClellan St,40.833909000000006,-73.92112,53.3166,30
4106,Ogden Ave & W 164 St,40.832812,-73.929372,113.7945,19
4081,Gerard Ave & E 165 St,40.83173,-73.922394,33.40516147,21
4076,E 150 St & Gerard Ave,40.820089,-73.928947,22.04069999,29
406,Hicks St & Montague St,40.69512845,-73.99595065,74.64969995,20
4116,Gerard Ave & E 164 St,40.830262,-73.92339100000001,36.55899999,19
4096,Grand Concourse & E 167 St,40.834263,-73.917641,109.50599999,30
4103,Ogden Ave & W 165 St,40.834457,-73.928381,106.55333786,19
4098,Shakespeare Ave & W 169 St,40.839312,-73.922423,87.86114229,20
4110,Avenue D & E 10 St,40.72506551015475,-73.97515833377837,8.65409999,30
4099,E 169 St & Webster Ave,40.834015,-73.908863,80.38,21
4084,Sheridan Ave & E 168 St,40.835334,-73.9154,112.03299999,22
4085,Grand Concourse & E 171 St,40.839549,-73.913004,106.58347943,25
4086,Inwood Ave & W 170 St,40.840536,-73.919228,39.97650654,21
4087,W 170 St & University Ave,40.84207,-73.926075,139.29949999,22
3972,E 158 St & Melrose Ave,40.822215,-73.914688,29.36299999,23
4088,Nelson Ave & W 172 St,40.843965000000004,-73.920999,115.60614640000001,20
4090,Grand Concourse & E 156 St,40.823429,-73.924689,80.4659449,21
3198,Heights Elevator,40.748715945380226,-74.04044330120088,5.55014126,18
3184,Paulus Hook,40.7141454,-74.0335519,10.0089787186,13
3791,Hoboken Ave at Monmouth St,40.73520838045357,-74.04696375131606,132.00251582,32
3185,City Hall,40.717732500000004,-74.04384499999999,9.9942,22
3192,Liberty Light Rail,40.711242299999995,-74.0557013,7.550925396869999,22
3245,NYCBS DEPOT - DELANCEY,40.71644423134479,-73.9823305606842,57.36508791,30
3792,Columbus Dr at Exchange Pl,40.71687,-74.03281,10.35192281,30
3199,Newport Pkwy,40.728744799999994,-74.03210820000001,132.00251582,14
3214,Essex Light Rail,40.712774200000005,-74.03648570000001,11.72582244,22
3211,Newark Ave,40.72152515,-74.046304543,8.70476928,22
3639,Harborside,40.71925170000001,-74.034234,8.70476928,30
3679,Bergen Ave,40.72210378668603,-74.07145500183104,8.179789584089999,14
3280,Astor Place,40.71928220070703,-74.07126188278198,8.179789584089999,14
3203,Hamilton Park,40.727595965999996,-74.044247311,132.00251582,26
3186,Grove St PATH,40.71958611647166,-74.0431174635887,9.29779069,42
3206,Hilltop,40.7311689,-74.0575736,7.550925396869999,26
3196,Riverview Park,40.7443187,-74.04399090000001,64.23908914,18
3202,Newport PATH,40.7272235,-74.03375890000001,132.00251582,18
3638,Washington St,40.7242941,-74.0354826,8.70476928,18
4101,E 153 St & E 157 St,40.826677000000004,-73.929327,23.1859287371,19
